[
  {
    "id": "1639.00236.500-5",
    "name": "CERES CAICÓ",
    "address": "RUA JOSE EVARISTO DE MEDEIROS 0, PENEDO",
    "complement": null,
    "city": "CAICÓ",
    "cep": "59300000",
    "latitude": null,
    "longitude": null,
    "type": "UNIVERSITY",
    "maintenanceInstanceId": null
  },
  {
    "id": "1639.00237.500-0",
    "name": "MUSEU DO SERIDÓ",
    "address": "RUA AMARO CAVALCANTE 123, CENTRO",
    "complement": null,
    "city": "CAICÓ",
    "cep": "59300000",
    "latitude": null,
    "longitude": null,
    "type": "MUSEUM",
    "maintenanceInstanceId": null
  },
  {
    "id": "1639.00246.500-0",
    "name": "ESTAÇÃO SISMOGRÁFICA DE CAICÓ",
    "address": "SITIO PIATOZINHO 0, CENTRO",
    "complement": null,
    "city": "CAICÓ",
    "cep": "59300000",
    "latitude": null,
    "longitude": null,
    "type": "STATION",
    "maintenanceInstanceId": null
  },
  {
    "id": "1639.00257.500-0",
    "name": "LOCAÇÃO - HOSPITAL DE ONCOLOGIA DO SERIDÓ",
    "address": "RUA DR. CARLINDO DE SOUZA DANTAS 540, CENTRO",
    "complement": null,
    "city": "CAICÓ",
    "cep": "59300000",
    "latitude": null,
    "longitude": null,
    "type": "HOSPITAL",
    "maintenanceInstanceId": null
  },
  {
    "id": "1661.00038.500-5",
    "name": "CERES CURRAIS NOVOS",
    "address": "FAZENDA TOTORÓ 0, DISTRITO",
    "complement": null,
    "city": "CURRAIS NOVOS",
    "cep": "59380000",
    "latitude": null,
    "longitude": null,
    "type": "UNIVERSITY",
    "maintenanceInstanceId": null
  },
  {
    "id": "1671.00002.500-6",
    "name": "FAZENDA SANTA MÔNICA - EXTREMOZ/RN",
    "address": "FOZ DO RIO CEARÁ-MIRIM 0, BOCA DA ILHA",
    "complement": null,
    "city": "EXTREMOZ",
    "cep": "59575000",
    "latitude": null,
    "longitude": null,
    "type": "FARM",
    "maintenanceInstanceId": null
  },
  {
    "id": "1741.00016.500-0",
    "name": "EAJ - ESCOLA AGRÍCOLA DE JUNDIAÍ / CAMPUS DO CÉREBRO",
    "address": "JUDIAÍ S/N, DISTRITO",
    "complement": "DISTRITO JUNDIAÍ",
    "city": "MACAÍBA",
    "cep": "59280000",
    "latitude": null,
    "longitude": null,
    "type": "OTHER",
    "maintenanceInstanceId": null
  },
  {
    "id": "1741.00016.500-7",
    "name": "EAJ - ESCOLA AGRÍCOLA DE JUNDIAÍ",
    "address": "JUNDIAÍ -, DISTRITO",
    "complement": "DISTRITO JUNDIAÍ",
    "city": "MACAÍBA",
    "cep": "59280000",
    "latitude": null,
    "longitude": null,
    "type": "FARM",
    "maintenanceInstanceId": null
  },
  {
    "id": "1743.00010.500-0",
    "name": "NÚCLEO DE ENSINO SUPERIOR DE MACAU",
    "address": "RUA PADRE JOÃO CLEMENTE -, CENTRO",
    "complement": null,
    "city": "MACAU",
    "cep": "59500000",
    "latitude": null,
    "longitude": null,
    "type": "UNIVERSITY",
    "maintenanceInstanceId": null
  },
  {
    "id": "1743.00011.500-6",
    "name": "TERRENO MACAUZINHO",
    "address": "ESTRADA NATAL - PENDÊNCIAS -, MACAUZINHO",
    "complement": null,
    "city": "MACAU",
    "cep": "59500000",
    "latitude": null,
    "longitude": null,
    "type": "LAND",
    "maintenanceInstanceId": null
  },
  {
    "id": "1761.00303.500-1",
    "name": "RESIDÊNCIA UNIVERSITÁRIA - PRAÇA PEDRO VELHO",
    "address": "PRAÇA PEDRO VELHO 449, PETRÓPOLIS",
    "complement": null,
    "city": "NATAL",
    "cep": "59020400",
    "latitude": null,
    "longitude": null,
    "type": "RESIDENCE",
    "maintenanceInstanceId": null
  },
  {
    "id": "1761.00304.500-7",
    "name": "ANTIGA ESCOLA DE SERVIÇO SOCIAL (CÂMARA MUNICIPAL DE NATAL)",
    "address": "JUNDIAÍ 546, TIROL",
    "complement": "ESQUINA COM À AVENIDA CAMPOS SALES",
    "city": "NATAL",
    "cep": "59020250",
    "latitude": null,
    "longitude": null,
    "type": "BUILDING",
    "maintenanceInstanceId": null
  },
  {
    "id": "1761.00307.500-3",
    "name": "MEJC - MATERNIDADE ESCOLA JANUÁRIO CICCO",
    "address": "NILO PEÇANHA 270, PETROPOLIS",
    "complement": null,
    "city": "NATAL",
    "cep": "59012300",
    "latitude": null,
    "longitude": null,
    "type": "HOSPITAL",
    "maintenanceInstanceId": null
  },
  {
    "id": "1761.00308.500-9",
    "name": "ESCOLA DE ENFERMAGEM",
    "address": "AV. NILO PEÇANHA 619, PETRÓPOLIS",
    "complement": null,
    "city": "NATAL",
    "cep": "59012300",
    "latitude": null,
    "longitude": null,
    "type": "UNIVERSITY",
    "maintenanceInstanceId": null
  },
  {
    "id": "1761.00309.500-4",
    "name": "MUSEU CAMARA CASCUDO",
    "address": "AV. HERMES DA FONSECA 1398, TIROL",
    "complement": null,
    "city": "NATAL",
    "cep": "59015001",
    "latitude": null,
    "longitude": null,
    "type": "MUSEUM",
    "maintenanceInstanceId": null
  },
  {
    "id": "1761.00310.500-0",
    "name": "NHH - NÚCLEO DE HEMATOLOGIA E HEMOTERAPIA",
    "address": "NILO PEÇANHA 619, PETRÓPOLIS",
    "complement": null,
    "city": "NATAL",
    "cep": "59012300",
    "latitude": null,
    "longitude": null,
    "type": "LABORATORY",
    "maintenanceInstanceId": null
  },
  {
    "id": "1761.00311.500-5",
    "name": "FACULDADE DE ODONTOLOGIA",
    "address": "AV. SALGADO FILHO 1787, LAGOA NOVA",
    "complement": null,
    "city": "NATAL",
    "cep": "59056300",
    "latitude": null,
    "longitude": null,
    "type": "UNIVERSITY",
    "maintenanceInstanceId": null
  },
  {
    "id": "1761.00352.500-9",
    "name": "ANTIGA FACULDADE DE DIREITO (ANTIGO GRUPO ESCOLAR AUGUSTO SEVERO)",
    "address": "PRAÇA AUGUSTO SEVERO 261, RIBEIRA",
    "complement": null,
    "city": "NATAL",
    "cep": "59012380",
    "latitude": null,
    "longitude": null,
    "type": "BUILDING",
    "maintenanceInstanceId": null
  },
  {
    "id": "1761.00359.500-7",
    "name": "RESIDÊNCIA UNIVERSITÁRIA - ADERBAL FIGUEIREDO",
    "address": "RUA ADERBAL FIGUEIREDO 0, PETROPOLIS",
    "complement": null,
    "city": "NATAL",
    "cep": "59010780",
    "latitude": null,
    "longitude": null,
    "type": "RESIDENCE",
    "maintenanceInstanceId": null
  },
  {
    "id": "1761.00360.500-2",
    "name": "DEPARTAMENTO DE OCEANOGRAFIA E LIMNOLOGIA - ÁREA II",
    "address": "VIA COSTEIRA 0, MÃE LUIZA",
    "complement": null,
    "city": "NATAL",
    "cep": "59090001",
    "latitude": null,
    "longitude": null,
    "type": "UNIVERSITY",
    "maintenanceInstanceId": null
  },
  {
    "id": "1761.00378.500-0",
    "name": "RESIDÊNCIA UNIVERSITÁRIA - MIPIBU",
    "address": "MIPIBU 419, PETROPOLIS",
    "complement": null,
    "city": "NATAL",
    "cep": "59020250",
    "latitude": null,
    "longitude": null,
    "type": "RESIDENCE",
    "maintenanceInstanceId": null
  },
  {
    "id": "1761.00394.500-8",
    "name": "HUOL - HOSPITAL UNIVERSITÁRIO ONOFRE LOPES",
    "address": "NILO PEÇANHA 620, PETRÓPOLIS",
    "complement": null,
    "city": "NATAL",
    "cep": "59012300",
    "latitude": null,
    "longitude": null,
    "type": "HOSPITAL",
    "maintenanceInstanceId": null
  },
  {
    "id": "1761.00395.500-3",
    "name": "ANTIGA FACULDADE DE FARMÁCIA E ODONTOLOGIA",
    "address": "CORONEL BEZERRA 0, CIDADE ALTA",
    "complement": "PRAÇA DO ESTUDANTE COM AV. JUNQUEIRA AIRES",
    "city": "NATAL",
    "cep": "59025070",
    "latitude": null,
    "longitude": null,
    "type": "BUILDING",
    "maintenanceInstanceId": null
  },
  {
    "id": "1761.00434.500-4",
    "name": "PRAÇA DO ESTUDANTE",
    "address": "RUA VIGÁRIO BARTOLOMEU 0, CIDADE ALTA",
    "complement": null,
    "city": "NATAL",
    "cep": "59025100",
    "latitude": null,
    "longitude": null,
    "type": "LAND",
    "maintenanceInstanceId": null
  },
  {
    "id": "1761.00446.500-0",
    "name": "ANTIGA ESCOLA INDUSTRIAL (CAMPUS IFRN CIDADE ALTA)",
    "address": "AV. RIO BRANCO 743, CIDADE ALTA",
    "complement": null,
    "city": "NATAL",
    "cep": "59025002",
    "latitude": null,
    "longitude": null,
    "type": "OTHER",
    "maintenanceInstanceId": null
  },
  {
    "id": "1761.00463.500-2",
    "name": "CAMPUS UNIVERSITÁRIO - ÁREA I",
    "address": "AV SALGADO FILHO 3000, LAGOA NOVA",
    "complement": null,
    "city": "NATAL",
    "cep": "57072970",
    "latitude": null,
    "longitude": null,
    "type": "UNIVERSITY",
    "maintenanceInstanceId": null
  },
  {
    "id": "1761.00464.500-8",
    "name": "CAMPUS UNIVERSITÁRIO - ÁREA II",
    "address": "AV SALGADO FILHO 3000, LAGOA NOVA",
    "complement": null,
    "city": "NATAL",
    "cep": "59072970",
    "latitude": null,
    "longitude": null,
    "type": "UNIVERSITY",
    "maintenanceInstanceId": null
  },
  {
    "id": "1761.00465.500-3",
    "name": "DEPARTAMENTO DE OCEANOGRAFIA E LIMNOLOGIA - ÁREA I",
    "address": "VIA COSTEIRA 0, MÃE LUIZA",
    "complement": null,
    "city": "NATAL",
    "cep": "59090001",
    "latitude": null,
    "longitude": null,
    "type": "UNIVERSITY",
    "maintenanceInstanceId": null
  },
  {
    "id": "1761.00553.500-1",
    "name": "ANEXO DA SINFO - SUPERINTENDÊNCIA DE INFORMÁTICA",
    "address": "AV. CAPITÃO MOR GOUVEIA 2851, LAGOA NOVA",
    "complement": null,
    "city": "NATAL",
    "cep": "59076400",
    "latitude": null,
    "longitude": null,
    "type": "RESIDENCE",
    "maintenanceInstanceId": null
  },
  {
    "id": "1761.00555.500-2",
    "name": "LOCAÇÃO - CRUTAC CIDADE JARDIM",
    "address": "AV. GUSTAVO GUEDES 1880, CAPIM MACIO",
    "complement": null,
    "city": "NATAL",
    "cep": "59078380",
    "latitude": null,
    "longitude": null,
    "type": "UNIVERSITY",
    "maintenanceInstanceId": null
  },
  {
    "id": "1761.00557.500-3",
    "name": "LOCAÇÃO - IMD - INSTITUTO METROPOLE DIGITAL",
    "address": "RUA PROF. JOÃO MACHADO 2884, CIDADE JARDIM",
    "complement": null,
    "city": "NATAL",
    "cep": "59078340",
    "latitude": null,
    "longitude": null,
    "type": "UNIVERSITY",
    "maintenanceInstanceId": null
  },
  {
    "id": "1761.00559.500-4",
    "name": "LOCAÇÃO - RESIDÊNCIA UNIVERSITÁRIA - ANTONIO BARROS CAVALCANTI",
    "address": "RUA ANTONIO BARROS CAVALCANTE 2873, CIDADE JARDIM",
    "complement": null,
    "city": "NATAL",
    "cep": "59078260",
    "latitude": null,
    "longitude": null,
    "type": "RESIDENCE",
    "maintenanceInstanceId": null
  },
  {
    "id": "1761.00561.500-5",
    "name": "LOCAÇÃO - RESIDÊNCIA UNIVERSITÁRIA - GARDÊNIAS",
    "address": "RUA DAS GARDÊNIAS 1885, LAGOA NOVA",
    "complement": null,
    "city": "NATAL",
    "cep": "59077020",
    "latitude": null,
    "longitude": null,
    "type": "RESIDENCE",
    "maintenanceInstanceId": null
  },
  {
    "id": "1761.00563.500-6",
    "name": "LOCAÇÃO - SECRETARIA DE ENSINO A DISTÂNCIA - SEDIS",
    "address": "RUA DRª NÍVEL MADRUGA 2055, LAGOA NOVA",
    "complement": null,
    "city": "NATAL",
    "cep": "59076730",
    "latitude": null,
    "longitude": null,
    "type": "UNIVERSITY",
    "maintenanceInstanceId": null
  },
  {
    "id": "1761.00565.500-7",
    "name": "LOCAÇÃO - RESIDENCIA UNIVERSITÁRIA - VIOLETAS",
    "address": "RUA DAS VIOLETAS 621, CAPIM MACIO",
    "complement": null,
    "city": "NATAL",
    "cep": "59078160",
    "latitude": null,
    "longitude": null,
    "type": "RESIDENCE",
    "maintenanceInstanceId": null
  },
  {
    "id": "1761.00567.500-8",
    "name": "LOCAÇÃO - IMD - INSTITUTO METRÓPOLE DIGITAL",
    "address": "AV. ODILON GOMES DE LIMA 1724, CAPIM MACIO",
    "complement": null,
    "city": "NATAL",
    "cep": "59078400",
    "latitude": null,
    "longitude": null,
    "type": "UNIVERSITY",
    "maintenanceInstanceId": null
  },
  {
    "id": "1761.00569.500-9",
    "name": "LOCAÇÃO - BIOINFORMÁTICA/IMD",
    "address": "RUA ODILON GOMES DE LIMA 1722, CAPIM MACIO",
    "complement": null,
    "city": "NATAL",
    "cep": "59078400",
    "latitude": null,
    "longitude": null,
    "type": "UNIVERSITY",
    "maintenanceInstanceId": null
  },
  {
    "id": "1761.00571.500-0",
    "name": "RESIDÊNCIA UNIVERSITÁRIA",
    "address": "RUA DA SAUDADE 1051, NOVA DESCOBERTA",
    "complement": null,
    "city": "NATAL",
    "cep": "59056400",
    "latitude": null,
    "longitude": null,
    "type": "RESIDENCE",
    "maintenanceInstanceId": null
  },
  {
    "id": "1761.00573.500-0",
    "name": "LOCAÇÃO - ASSOCIAÇÃO POTIGUAR DE EDUCAÇÃO E CULTURA - APEC",
    "address": "RUA MAL. FLORIANO PEIXOTO 295, PETROPOLIS",
    "complement": null,
    "city": "NATAL",
    "cep": "59012265",
    "latitude": null,
    "longitude": null,
    "type": "UNIVERSITY",
    "maintenanceInstanceId": null
  },
  {
    "id": "1761.00575.500-1",
    "name": "LOCAÇÃO - INSTITUTO DE NEUROCIÊNCIAS",
    "address": "RUA XAVIER DA SILVEIRA 688, LAGOA NOVA",
    "complement": null,
    "city": "NATAL",
    "cep": "59075450",
    "latitude": null,
    "longitude": null,
    "type": "UNIVERSITY",
    "maintenanceInstanceId": null
  },
  {
    "id": "1761.00579.500-3",
    "name": "LOCAÇÃO - IMD - INSTITUTO METRÓPOLE DIGITAL",
    "address": "MONTE SINAI 1653, CAPIM MACIO",
    "complement": null,
    "city": "NATAL",
    "cep": "59078360",
    "latitude": null,
    "longitude": null,
    "type": "UNIVERSITY",
    "maintenanceInstanceId": null
  },
  {
    "id": "1761.00581.500-4",
    "name": "IMT - INSTITUTO DE MEDICINA TROPICAL",
    "address": "CÔNEGO MONTE -, QUINTAS",
    "complement": null,
    "city": "NATAL",
    "cep": "59037170",
    "latitude": null,
    "longitude": null,
    "type": "LAND",
    "maintenanceInstanceId": null
  },
  {
    "id": "1761.00597.500-1",
    "name": "LOCAÇÃO - INSTITUTO DO CÉREBRO",
    "address": "NASCIMENTO DE CASTRO 2151, LAGOA NOVA",
    "complement": "ESQUINA COM A RUA JÚLIO REZENDE",
    "city": "NATAL",
    "cep": "59056450",
    "latitude": null,
    "longitude": null,
    "type": "UNIVERSITY",
    "maintenanceInstanceId": null
  },
  {
    "id": "1761.00655.500-6",
    "name": "TERRENO SAN VALLE",
    "address": "DOUTOR JOSÉ TAVARES DA SILVA S/N, CANDELÁRIA",
    "complement": null,
    "city": "NATAL",
    "cep": "59066260",
    "latitude": null,
    "longitude": null,
    "type": "LAND",
    "maintenanceInstanceId": null
  },
  {
    "id": "1779.00077.500-7",
    "name": "LOCAÇÃO - DEPÓSITO PARA MATERIAL PERMANENTE",
    "address": "RUA SINHORZINHO 490, PARQUE DE EXPOSIÇÕES",
    "complement": "D",
    "city": "PARNAMIRIM",
    "cep": "59150000",
    "latitude": null,
    "longitude": null,
    "type": "WAREHOUSE",
    "maintenanceInstanceId": null
  },
  {
    "id": "1779.00080.500-3",
    "name": "LOCAÇÃO - DEPÓSITO PARA MATERIAL PERMANENTE",
    "address": "RUA SINHOZINHO 328, PARQUE DE EXPOSIÇÕES",
    "complement": "CONDOMÍNIO COMERCIAL PARQUE DE EXPOSIÇÕES",
    "city": "PARNAMIRIM",
    "cep": "59150000",
    "latitude": null,
    "longitude": null,
    "type": "WAREHOUSE",
    "maintenanceInstanceId": null
  },
  {
    "id": "1823.00029.500-6",
    "name": "HUAB - HOSPITAL UNIVERSITÁRIO ANA BEZERRA",
    "address": "PRAÇA MANOEL VILAÇA 13, CENTRO",
    "complement": null,
    "city": "SANTA CRUZ",
    "cep": "59200000",
    "latitude": null,
    "longitude": null,
    "type": "HOSPITAL",
    "maintenanceInstanceId": null
  },
  {
    "id": "1823.00034.500-3",
    "name": "FACISA - FACULDADE DE CIÊNCIAS DA SAÚDE DO TRAIRÍ",
    "address": "RUA SEN. JOÃO CÂMARA 0, CENTRO",
    "complement": null,
    "city": "SANTA CRUZ",
    "cep": "59200000",
    "latitude": null,
    "longitude": null,
    "type": "LAND",
    "maintenanceInstanceId": null
  },
  {
    "id": "1823.00040.500-6",
    "name": "LOCAÇÃO - ESCRITORIO ADMINISTRATIVO DA FACISA",
    "address": "RUA TRAIRI 27, CENTRO",
    "complement": "A",
    "city": "SANTA CRUZ",
    "cep": "59200000",
    "latitude": null,
    "longitude": null,
    "type": "UNIVERSITY",
    "maintenanceInstanceId": null
  },
  {
    "id": "1823.00046.500-9",
    "name": "RESIDÊNCIA UNIVERSITÁRIA DE SANTA CRUZ/RN",
    "address": "RUA ALUÍZIO BEZERRA 175, CENTRO",
    "complement": null,
    "city": "SANTA CRUZ",
    "cep": "59200000",
    "latitude": null,
    "longitude": null,
    "type": "RESIDENCE",
    "maintenanceInstanceId": null
  },
  {
    "id": "1823.00048.500-0",
    "name": "LOCAÇÃO - GERÊNCIA DE ENSINO E PESQUISA DO HUAB",
    "address": "BARÃO DO RIO BRANCO 588, CENTRO",
    "complement": null,
    "city": "SANTA CRUZ",
    "cep": "59200000",
    "latitude": null,
    "longitude": null,
    "type": "UNIVERSITY",
    "maintenanceInstanceId": null
  },
  {
    "id": "1823.00050.500-0",
    "name": "LOCAÇÃO - GERÊNCIA ADMINISTRATIVA DO HUAB",
    "address": "COSME FERREIRA MARQUES 337, CENTRO",
    "complement": null,
    "city": "SANTA CRUZ",
    "cep": "59200000",
    "latitude": null,
    "longitude": null,
    "type": "AUTARCHY",
    "maintenanceInstanceId": null
  },
  {
    "id": "1829.00004.500-9",
    "name": "HURA - HOSPITAL UNIVERSITÁRIO RODOPIANO AZEVEDO",
    "address": "RUA ANA PONTES 0, CENTRO",
    "complement": null,
    "city": "SANTO ANTÔNIO",
    "cep": "59255000",
    "latitude": null,
    "longitude": null,
    "type": "HOSPITAL",
    "maintenanceInstanceId": null
  },
  {
    "id": "1829.00006.500-0",
    "name": "RESIDÊNCIA UNIVERSITÁRIA - SANTO ANTÔNIO/RN",
    "address": "RUA ANA PONTES 0, CENTRO",
    "complement": null,
    "city": "SANTO ANTÔNIO",
    "cep": "59255000",
    "latitude": null,
    "longitude": null,
    "type": "RESIDENCE",
    "maintenanceInstanceId": null
  },
  {
    "id": "1877.00017.500-0",
    "name": "MATERNIDADE SANTA TEREZINHA",
    "address": "RUA MIGUEL BARBOSA -, CENTRO",
    "complement": null,
    "city": "TANGARÁ",
    "cep": "59240000",
    "latitude": null,
    "longitude": null,
    "type": "HOSPITAL",
    "maintenanceInstanceId": null
  },
  {
    "id": "9701.22173.500-5",
    "name": "ESCRITÓRIO DE REPRESENTAÇÃO EM BRASÍLIA - UFRN",
    "address": "AV. W-3 NORTE- SETOR DE RADIO E TELEVISÃO NORTE 0, NORTE",
    "complement": "EDIFICIO BRASÍLIA RADIO CENTER - SL. 1120",
    "city": "BRASILIA",
    "cep": "73380600",
    "latitude": null,
    "longitude": null,
    "type": "OFFICE",
    "maintenanceInstanceId": null
  }
]
